<?xml version="1.0"?>
<ArrayOfCustomer xmlns:xsi="http://www.w3.org/2001/XMLSchema-instance" xmlns:xsd="http://www.w3.org/2001/XMLSchema">
  <Customer>
    <Id>63787883</Id>
    <Name>Yosi</Name>
    <Phone>05467651241</Phone>
    <Longitude>96.33916032330093</Longitude>
    <Latitude>176.54092795054473</Latitude>
  </Customer>
  <Customer>
    <Id>77473936</Id>
    <Name>Dani</Name>
    <Phone>0524931828</Phone>
    <Longitude>74.20672512343467</Longitude>
    <Latitude>56.16697761051682</Latitude>
  </Customer>
  <Customer>
    <Id>81544783</Id>
    <Name>Avi</Name>
    <Phone>0526067135</Phone>
    <Longitude>74.36528416088096</Longitude>
    <Latitude>31.391462968379006</Latitude>
  </Customer>
  <Customer>
    <Id>82457684</Id>
    <Name>Rafi</Name>
    <Phone>0527839442</Phone>
    <Longitude>49.90418979427972</Longitude>
    <Latitude>37.73553253046029</Latitude>
  </Customer>
  <Customer>
    <Id>45052964</Id>
    <Name>Yoel</Name>
    <Phone>0524711136</Phone>
    <Longitude>65.68914919425228</Longitude>
    <Latitude>175.43762423816958</Latitude>
  </Customer>
  <Customer>
    <Id>57181961</Id>
    <Name>David</Name>
    <Phone>0588824245</Phone>
    <Longitude>34.57997271538711</Longitude>
    <Latitude>44.458850102712795</Latitude>
  </Customer>
  <Customer>
    <Id>72580948</Id>
    <Name>Israel</Name>
    <Phone>0586934625</Phone>
    <Longitude>75.2321291878969</Longitude>
    <Latitude>138.8404523948396</Latitude>
  </Customer>
  <Customer>
    <Id>80755417</Id>
    <Name>Levi</Name>
    <Phone>0542444196</Phone>
    <Longitude>138.7044498132097</Longitude>
    <Latitude>118.36078299133143</Latitude>
  </Customer>
  <Customer>
    <Id>82170219</Id>
    <Name>Ben</Name>
    <Phone>0549035643</Phone>
    <Longitude>10.629660128909006</Longitude>
    <Latitude>102.81316656750307</Latitude>
  </Customer>
  <Customer>
    <Id>46354286</Id>
    <Name>Moti</Name>
    <Phone>0542463885</Phone>
    <Longitude>92.51223470667014</Longitude>
    <Latitude>43.344909419931895</Latitude>
  </Customer>
</ArrayOfCustomer>